City_ID,City,Country,Date,Lat,Lng,Max Temp,Humidity,Cloudiness,Wind Speed
0,Los Llanos De Aridane,ES,2021-04-25 23:37:06,28.6585,-17.9182,68.0,68,75,8.86
1,Ushuaia,AR,2021-04-25 23:44:20,-54.8,-68.3,50.0,71,75,24.16
2,Linxia,CN,2021-04-25 23:46:53,35.6003,103.2064,42.48,75,17,1.48
3,Sulangan,PH,2021-04-25 23:46:54,11.1373,123.7228,81.66,75,23,12.82
4,Mahon,ES,2021-04-25 23:46:54,39.8885,4.2658,59.0,77,0,17.27
5,Portland,US,2021-04-25 23:42:32,45.5234,-122.6762,60.8,44,75,8.05
6,Vao,NC,2021-04-25 23:36:58,-22.6667,167.4833,74.5,69,82,15.23
7,Avarua,CK,2021-04-25 23:42:50,-21.2078,-159.775,82.4,78,75,10.36
8,Benguela,AO,2021-04-25 23:46:36,-12.5763,13.4055,78.28,84,50,1.43
9,Vaini,TO,2021-04-25 23:46:34,-21.2,-175.2,80.6,83,75,6.91
10,Namatanai,PG,2021-04-25 23:38:34,-3.6667,152.4333,83.01,71,93,2.06
11,Severobaykalsk,RU,2021-04-25 23:46:56,55.65,109.3167,32.32,71,100,7.81
12,Alofi,NU,2021-04-25 23:45:20,-19.0595,-169.9187,86.0,70,51,6.91
13,Kodiak,US,2021-04-25 23:33:15,57.79,-152.4072,42.8,75,90,10.36
14,Fortuna,US,2021-04-25 23:38:17,40.5982,-124.1573,55.99,66,90,9.22
15,Sibu,MY,2021-04-25 23:46:56,2.3,111.8167,75.2,94,20,4.61
16,Hermanus,ZA,2021-04-25 23:43:38,-34.4187,19.2345,61.0,92,82,1.99
17,Port Alfred,ZA,2021-04-25 23:36:59,-33.5906,26.891,70.63,56,100,11.83
18,Albany,US,2021-04-25 23:46:57,42.6001,-73.9662,57.2,58,20,16.11
19,Richards Bay,ZA,2021-04-25 23:37:54,-28.783,32.0377,64.6,92,6,3.2
20,Balint,RO,2021-04-25 23:46:57,45.8125,21.8536,48.99,100,0,6.91
21,New Norfolk,AU,2021-04-25 23:46:58,-42.7826,147.0587,63.0,74,98,3.0
22,Bud,US,2021-04-25 23:38:24,39.447,-86.1758,57.2,38,1,3.44
23,Dikson,RU,2021-04-25 23:37:23,73.5069,80.5464,17.31,93,100,12.46
24,East London,ZA,2021-04-25 23:45:15,-33.0153,27.9116,67.73,59,100,9.35
25,Bowen,AU,2021-04-25 23:46:58,-20.0167,148.2333,75.2,73,90,11.5
26,Mayo,US,2021-04-25 23:37:17,38.8876,-76.5119,64.4,42,40,10.36
27,Thompson,CA,2021-04-25 23:42:51,55.7435,-97.8558,32.0,93,75,4.61
28,Winchester,GB,2021-04-25 23:46:59,51.0651,-1.3187,44.6,70,75,9.22
29,Bluff,NZ,2021-04-25 23:42:58,-46.6,168.3333,48.0,90,82,11.01
30,Anadyr,RU,2021-04-25 23:44:03,64.75,177.4833,26.6,93,90,6.71
31,Carnarvon,AU,2021-04-25 23:47:00,-24.8667,113.6333,59.0,72,0,8.05
32,Isangel,VU,2021-04-25 23:42:51,-19.55,169.2667,82.4,74,75,11.5
33,Jamestown,US,2021-04-25 23:37:00,42.097,-79.2353,41.0,65,90,16.11
34,Punta Arenas,CL,2021-04-25 23:47:00,-53.15,-70.9167,48.2,87,90,13.8
35,Barrow,US,2021-04-25 23:47:01,71.2906,-156.7887,21.2,86,1,21.85
36,Kaitangata,NZ,2021-04-25 23:37:26,-46.2817,169.8464,55.0,49,68,8.01
37,Te Anau,NZ,2021-04-25 23:39:25,-45.4167,167.7167,47.23,89,100,6.82
38,Sabla,NG,2021-04-25 23:47:01,12.7525,4.7077,93.72,26,99,9.86
39,Arraial Do Cabo,BR,2021-04-25 23:47:02,-22.9661,-42.0278,74.32,83,85,9.01
40,Charyshskoye,RU,2021-04-25 23:47:02,51.3978,83.5598,35.51,72,99,4.36
41,Windhoek,NA,2021-04-25 23:43:45,-22.5594,17.0832,57.2,54,23,4.61
42,Severo-Kurilsk,RU,2021-04-25 23:37:21,50.6789,156.125,32.41,98,100,13.42
43,Saint-Philippe,RE,2021-04-25 23:47:03,-21.3585,55.7679,77.0,73,0,17.27
44,Rikitea,PF,2021-04-25 23:47:03,-23.1203,-134.9692,77.97,75,86,5.95
45,Mehamn,NO,2021-04-25 23:38:38,71.0357,27.8492,33.1,81,99,8.72
46,Busselton,AU,2021-04-25 23:47:04,-33.65,115.3333,62.13,75,100,4.29
47,Asfi,MA,2021-04-25 23:47:04,32.2994,-9.2372,64.13,79,7,23.15
48,Lieksa,FI,2021-04-25 23:47:04,63.3167,30.0167,36.52,89,100,11.86
49,Codrington,AU,2021-04-25 23:37:18,-38.2667,141.9667,60.53,66,99,6.73
50,Bandarbeyla,SO,2021-04-25 23:37:44,9.4942,50.8122,82.74,68,87,5.28
51,Georgetown,MY,2021-04-25 23:42:20,5.4112,100.3354,81.0,89,20,3.44
52,Nikolskoye,RU,2021-04-25 23:37:07,59.7035,30.7861,37.99,87,90,8.95
53,Cantanhede,BR,2021-04-25 23:47:05,-3.6333,-44.3767,74.3,96,59,3.0
54,Korhogo,CI,2021-04-25 23:47:06,9.45,-5.6333,82.11,56,93,5.46
55,Faanui,PF,2021-04-25 23:43:23,-16.4833,-151.75,81.0,64,21,2.51
56,Deputatskiy,RU,2021-04-25 23:39:31,69.3,139.9,24.3,86,97,4.47
57,Luderitz,NA,2021-04-25 23:37:13,-26.6481,15.1594,61.56,89,95,3.47
58,Hobart,AU,2021-04-25 23:44:49,-42.8794,147.3294,62.01,48,40,19.57
59,Chokurdakh,RU,2021-04-25 23:47:07,70.6333,147.9167,23.97,94,100,13.73
60,Katsuura,JP,2021-04-25 23:38:15,35.1333,140.3,53.01,37,20,17.27
61,Constitucion,CL,2021-04-25 23:38:15,-35.3333,-72.4167,57.22,81,1,11.12
62,Tuktoyaktuk,CA,2021-04-25 23:47:07,69.4541,-133.0374,14.0,79,90,11.5
63,Terney,RU,2021-04-25 23:47:08,45.0503,136.6092,45.0,40,5,2.37
64,Tasiilaq,GL,2021-04-25 23:42:21,65.6145,-37.6368,37.4,81,90,11.5
65,Norman Wells,CA,2021-04-25 23:43:51,65.282,-126.8329,37.4,38,20,12.66
66,Great Falls,US,2021-04-25 23:47:08,47.5002,-111.3008,46.99,66,75,6.91
67,Rayagada,IN,2021-04-25 23:47:09,19.1667,83.4167,76.73,70,8,2.93
68,Cape Town,ZA,2021-04-25 23:35:14,-33.9258,18.4232,62.6,94,75,4.61
69,Kavaratti,IN,2021-04-25 23:47:09,10.5669,72.642,83.73,73,3,8.39
70,Mataura,NZ,2021-04-25 23:47:10,-46.1927,168.8643,48.0,90,78,11.01
71,Yellowknife,CA,2021-04-25 23:45:12,62.456,-114.3525,10.0,72,90,13.8
72,Qaanaaq,GL,2021-04-25 23:38:01,77.484,-69.3632,28.38,69,12,7.94
73,Harrison,US,2021-04-25 23:38:40,30.4091,-89.0436,75.2,53,1,6.91
74,Kieta,PG,2021-04-25 23:38:50,-6.2167,155.6333,84.07,67,87,3.76
75,Kimbe,PG,2021-04-25 23:47:11,-5.5502,150.1429,78.01,88,96,3.78
76,Tiksi,RU,2021-04-25 23:38:31,71.6872,128.8694,27.45,95,100,5.17
77,Iqaluit,CA,2021-04-25 23:47:11,63.7506,-68.5145,33.8,86,75,3.44
78,Ulaanbaatar,MN,2021-04-25 23:47:11,47.9077,106.8832,30.2,80,75,15.66
79,Najran,SA,2021-04-25 23:46:57,17.4924,44.1277,77.0,44,40,5.3
80,Bengkulu,ID,2021-04-25 23:37:36,-3.8004,102.2655,76.21,86,62,4.09
81,Ofaqim,IL,2021-04-25 23:47:12,31.3141,34.6203,72.0,36,0,5.01
82,Mahebourg,MU,2021-04-25 23:37:15,-20.4081,57.7,77.0,88,75,14.97
83,Butaritari,KI,2021-04-25 23:37:14,3.0707,172.7902,83.05,74,14,11.61
84,Vestmannaeyjar,IS,2021-04-25 23:45:40,63.4427,-20.2734,44.02,80,1,8.57
85,Castro,BR,2021-04-25 23:47:13,-24.7911,-50.0119,59.34,91,71,3.2
86,Khatanga,RU,2021-04-25 23:37:34,71.9667,102.5,7.86,94,67,11.25
87,Beisfjord,NO,2021-04-25 23:47:13,68.3751,17.5988,32.0,93,90,4.43
88,Marsh Harbour,BS,2021-04-25 23:34:50,26.5412,-77.0636,79.34,73,0,10.94
89,Magistralnyy,RU,2021-04-25 23:47:14,56.1725,107.4458,34.05,78,94,6.02
90,Labuan,MY,2021-04-25 23:47:14,5.2767,115.2417,80.6,89,40,4.74
91,Sao Filipe,CV,2021-04-25 23:47:15,14.8961,-24.4956,72.05,71,84,8.84
92,Kuusamo,FI,2021-04-25 23:47:15,65.9667,29.1833,30.2,86,90,9.22
93,Bukachacha,RU,2021-04-25 23:47:15,52.9833,116.9167,45.01,40,100,8.75
94,Beringovskiy,RU,2021-04-25 23:37:56,63.05,179.3167,31.64,91,96,1.68
95,La Asuncion,VE,2021-04-25 23:39:26,11.0333,-63.8628,82.4,69,31,20.71
96,Ngunguru,NZ,2021-04-25 23:47:16,-35.6167,174.5,66.99,69,41,5.99
97,Lianyuan,CN,2021-04-25 23:47:16,27.6883,111.6642,58.96,94,100,1.63
98,Manaus,BR,2021-04-25 23:44:29,-3.1019,-60.025,80.6,83,20,2.3
99,Andenes,NO,2021-04-25 23:47:17,69.3143,16.1194,35.6,75,90,5.75
100,Wattegama,LK,2021-04-25 23:47:17,6.7989,81.4808,73.51,93,68,1.92
101,Hilo,US,2021-04-25 23:46:39,19.7297,-155.09,78.8,69,90,8.05
102,Esna,EG,2021-04-25 23:47:18,25.2934,32.554,84.2,20,0,3.44
103,Coquimbo,CL,2021-04-25 23:43:16,-29.9533,-71.3436,57.2,82,0,8.05
104,Ternate,ID,2021-04-25 23:47:18,0.8,127.4,83.32,72,52,4.7
105,Krasnoarmeysk,RU,2021-04-25 23:47:19,51.0239,45.6969,44.01,42,65,1.99
106,Sars,RU,2021-04-25 23:47:19,56.5502,57.1366,34.79,81,89,12.8
107,Kapaa,US,2021-04-25 23:42:32,22.0752,-159.319,80.6,65,40,12.66
108,Esperance,AU,2021-04-25 23:42:33,-33.8667,121.9,59.0,55,0,16.11
109,Hulan Ergi,CN,2021-04-25 23:47:20,47.2042,123.6333,56.48,24,100,16.37
110,Taltal,CL,2021-04-25 23:47:20,-25.4,-70.4833,62.89,81,36,3.71
111,Axim,GH,2021-04-25 23:39:15,4.8699,-2.2405,80.15,83,97,5.46
112,Muroto,JP,2021-04-25 23:47:21,33.2833,134.15,57.2,28,0,5.75
113,Touros,BR,2021-04-25 23:37:32,-5.1989,-35.4608,78.8,83,20,6.91
114,Shubarshi,KZ,2021-04-25 23:39:35,48.5872,57.1869,50.09,85,99,9.8
115,The Valley,AI,2021-04-25 23:47:21,18.217,-63.0578,79.0,78,20,13.8
116,Sonoita,MX,2021-04-25 23:47:21,31.85,-112.8333,84.99,14,69,5.99
117,Keelung,TW,2021-04-25 23:47:22,25.1283,121.7419,75.2,73,75,12.66
118,Matagami,CA,2021-04-25 23:47:22,49.7502,-77.6328,21.2,86,90,20.71
119,Qurayyat,SA,2021-04-25 23:47:23,31.3318,37.3428,69.8,26,0,9.22
120,Roald,NO,2021-04-25 23:47:23,62.5833,6.1333,37.4,75,90,10.36
121,Doka,SD,2021-04-25 23:47:23,13.5167,35.7667,86.63,41,99,14.94
122,Sangmelima,CM,2021-04-25 23:47:24,2.9333,11.9833,68.72,92,60,0.81
123,Rawson,AR,2021-04-25 23:38:25,-43.3002,-65.1023,61.79,54,80,21.83
124,Riyadh,SA,2021-04-25 23:40:02,24.6877,46.7219,78.8,24,0,4.23
125,Banjar,ID,2021-04-25 23:47:25,-8.19,114.9675,78.8,83,20,2.3
126,Cockburn Town,TC,2021-04-25 23:45:11,21.4612,-71.1419,78.8,73,40,11.5
127,Chkalovsk,RU,2021-04-25 23:47:26,56.7647,43.2433,37.4,60,0,15.66
128,Saint George,US,2021-04-25 23:43:20,37.1041,-113.5841,80.6,11,1,27.63
129,Pimentel,PE,2021-04-25 23:38:06,-6.8367,-79.9342,71.6,64,0,19.57
130,Bethel,US,2021-04-25 23:37:52,41.3712,-73.414,60.8,51,90,5.75
131,Hualmay,PE,2021-04-25 23:37:30,-11.0964,-77.6139,67.26,85,23,7.23
132,Torbay,CA,2021-04-25 23:38:30,47.6666,-52.7314,45.0,57,20,9.22
133,Saskylakh,RU,2021-04-25 23:37:53,71.9167,114.0833,14.99,93,100,23.55
134,Mardin,TR,2021-04-25 23:47:27,37.3131,40.7436,67.6,30,74,10.89
135,Rtishchevo,RU,2021-04-25 23:47:28,52.2604,43.7874,35.49,74,66,9.66
136,Fort Nelson,CA,2021-04-25 23:37:40,58.8053,-122.7002,57.2,14,40,8.05
137,Ponta Do Sol,PT,2021-04-25 23:47:28,32.6667,-17.1,57.99,86,56,5.01
138,Rudarpur,IN,2021-04-25 23:47:28,26.4394,83.6144,76.39,13,33,4.52
139,Bambous Virieux,MU,2021-04-25 23:37:33,-20.3428,57.7575,77.0,88,75,14.97
140,Owerri,NG,2021-04-25 23:47:29,5.4833,7.0304,80.6,83,20,6.91
141,Ban Nahin,LA,2021-04-25 23:47:29,18.2418,104.2122,80.49,76,100,1.68
142,Berlevag,NO,2021-04-25 23:47:29,70.8578,29.0864,29.84,85,71,14.23
143,San Patricio,US,2021-04-25 23:38:08,28.017,-97.5169,79.0,65,40,17.27
144,Dera Ghazi Khan,PK,2021-04-25 23:47:30,30.0561,70.6348,80.6,21,0,6.26
145,Savannah Bight,HN,2021-04-25 23:47:30,16.45,-85.85,86.0,70,20,2.3
146,Tura,IN,2021-04-25 23:39:05,25.5198,90.2201,75.58,30,2,4.14
147,Nome,US,2021-04-25 23:47:31,64.5011,-165.4064,42.01,87,1,6.91
148,Celestun,MX,2021-04-25 23:47:31,20.8667,-90.4,81.25,71,32,12.93
149,Broome,US,2021-04-25 23:38:51,42.2506,-75.833,50.0,66,40,13.8
150,Abbeville,FR,2021-04-25 23:47:32,50.1,1.8333,39.99,82,57,10.49
151,Shenkursk,RU,2021-04-25 23:47:32,62.1091,42.896,39.9,95,100,4.41
152,Upernavik,GL,2021-04-25 23:43:01,72.7868,-56.1549,33.75,76,45,4.94
153,Mpanda,TZ,2021-04-25 23:47:33,-6.3655,31.0409,63.73,97,93,1.45
154,Watrous,CA,2021-04-25 23:47:33,51.6668,-105.4679,50.0,16,100,9.22
155,Laurel,US,2021-04-25 23:47:33,39.0993,-76.8483,63.0,41,1,3.44
156,Tabriz,IR,2021-04-25 23:47:34,38.08,46.2919,59.0,33,0,6.91
157,Khor,RU,2021-04-25 23:47:34,47.8861,134.9464,48.54,24,25,9.73
158,Victoria,HK,2021-04-25 23:47:35,22.2855,114.1577,73.99,81,99,5.01
159,Nalut,LY,2021-04-25 23:39:57,30.3333,10.85,70.11,24,65,17.16
160,Geraldton,AU,2021-04-25 23:47:07,-28.7667,114.6,68.0,42,1,12.66
161,Waddan,LY,2021-04-25 23:39:13,29.1614,16.139,61.41,65,1,7.96
162,Cabo San Lucas,MX,2021-04-25 23:37:25,22.8909,-109.9124,82.99,24,90,8.05
163,Carauari,BR,2021-04-25 23:47:36,-4.8828,-66.8958,75.61,95,93,0.67
164,Abaza,RU,2021-04-25 23:47:36,52.655,90.0928,32.18,74,64,4.16
165,Longyearbyen,SJ,2021-04-25 23:38:29,78.2186,15.6401,15.8,67,20,8.05
166,Santa Cruz,BO,2021-04-25 23:47:37,-17.8,-63.1667,68.0,88,75,6.91
167,Henties Bay,NA,2021-04-25 23:38:30,-22.116,14.2845,61.0,92,12,3.53
168,Alta Floresta,BR,2021-04-25 23:37:47,-9.8756,-56.0861,73.04,94,87,2.73
169,Canala,NC,2021-04-25 23:47:37,-21.5333,165.95,77.0,65,75,12.66
170,Wasilla,US,2021-04-25 23:47:38,61.5814,-149.4394,60.8,29,1,6.91
171,Waipawa,NZ,2021-04-25 23:47:38,-41.4122,175.5153,60.8,55,40,12.66
172,Fairbanks,US,2021-04-25 23:37:44,64.8378,-147.7164,62.6,30,1,0.89
173,Jalingo,NG,2021-04-25 23:47:39,8.8833,11.3667,79.75,59,71,3.89
174,Beloha,MG,2021-04-25 23:38:01,-25.1667,45.05,71.53,71,0,6.53
175,Zhigansk,RU,2021-04-25 23:39:08,66.7697,123.3711,32.47,99,100,8.46
176,Puerto Ayora,EC,2021-04-25 23:47:39,-0.7393,-90.3518,76.15,81,42,7.56
177,Nyurba,RU,2021-04-25 23:47:40,63.2842,118.3319,33.78,90,100,7.09
178,Tulsipur,NP,2021-04-25 23:47:40,28.131,82.2973,80.01,54,0,1.99
179,Iracoubo,GF,2021-04-25 23:47:41,5.4802,-53.2011,77.65,89,86,10.92
180,Sompeta,IN,2021-04-25 23:47:41,18.9333,84.6,79.03,74,21,10.67
181,Ust-Kut,RU,2021-04-25 23:38:28,56.7938,105.7672,31.96,89,87,5.23
182,Rocha,UY,2021-04-25 23:39:39,-34.4833,-54.3333,58.28,80,45,8.59
183,Cidreira,BR,2021-04-25 23:44:52,-30.1811,-50.2056,67.62,62,87,10.4
184,Lingao,CN,2021-04-25 23:47:42,19.9103,109.6859,78.69,85,100,13.04
185,Stornoway,GB,2021-04-25 23:38:01,58.2093,-6.3865,50.0,81,100,6.91
186,Nicoya,CR,2021-04-25 23:47:30,10.1483,-85.452,89.6,45,0,14.97
187,Derzhavinsk,KZ,2021-04-25 23:46:04,51.1,66.3167,47.97,70,70,14.43
188,Ust-Nera,RU,2021-04-25 23:40:01,64.5667,143.2,17.76,85,88,5.57
189,Viransehir,TR,2021-04-25 23:43:49,37.2353,39.7631,63.73,50,99,9.06
190,Torzhok,RU,2021-04-25 23:47:43,57.0436,34.9622,32.41,86,100,8.66
191,Muros,ES,2021-04-25 23:38:40,42.7762,-9.0603,59.0,92,54,1.01
192,Wakkanai,JP,2021-04-25 23:47:43,45.4094,141.6739,41.0,60,40,9.22
193,Shizukuishi,JP,2021-04-25 23:47:44,39.6833,140.9833,46.4,46,40,13.8
194,Broken Hill,AU,2021-04-25 23:37:45,-31.95,141.4333,59.0,55,0,7.76
195,Saint-Louis,SN,2021-04-25 23:47:45,16.3333,-15.0,82.4,36,0,2.3
196,Gondanglegi,ID,2021-04-25 23:47:45,-7.7479,112.0132,76.84,85,40,0.38
197,Namibe,AO,2021-04-25 23:39:54,-15.1961,12.1522,76.96,66,0,9.48
198,Potsdam,DE,2021-04-25 23:47:46,52.3989,13.0657,36.0,58,8,5.14
199,Itarema,BR,2021-04-25 23:39:06,-2.9248,-39.9167,77.4,80,7,8.46
200,Barranca,PE,2021-04-25 23:47:46,-10.75,-77.7667,66.78,83,18,6.85
201,Schwandorf,DE,2021-04-25 23:47:47,49.3262,12.1093,42.01,60,1,5.91
202,Kindu,CD,2021-04-25 23:47:47,-2.95,25.95,67.51,96,94,0.92
203,Erenhot,CN,2021-04-25 23:47:47,43.6475,111.9767,44.19,13,39,29.28
204,Lazaro Cardenas,MX,2021-04-25 23:47:48,17.9583,-102.2,81.41,59,100,9.57
205,Manjacaze,MZ,2021-04-25 23:47:48,-24.7117,33.8828,66.04,93,0,2.82
206,Ostrovnoy,RU,2021-04-25 23:38:14,68.0531,39.5131,32.54,97,100,21.74
207,Thinadhoo,MV,2021-04-25 23:44:47,0.5333,72.9333,82.02,65,74,3.51
208,Lebu,CL,2021-04-25 23:47:49,-37.6167,-73.65,55.31,91,1,9.91
209,Thap Than,TH,2021-04-25 23:47:49,15.4606,99.8917,81.0,99,83,2.64
210,Port Elizabeth,ZA,2021-04-25 23:44:28,-33.918,25.5701,59.0,88,0,8.05
211,Snasa,NO,2021-04-25 23:47:50,64.2457,12.3778,25.79,96,14,2.3
212,Katobu,ID,2021-04-25 23:44:10,-4.9408,122.5276,81.27,71,73,3.8
213,Ust-Maya,RU,2021-04-25 23:38:02,60.4167,134.5333,33.51,91,100,3.38
214,Lithakia,GR,2021-04-25 23:47:50,37.7167,20.8333,55.0,82,20,3.44
215,Nova Olimpia,BR,2021-04-25 23:47:51,-14.7972,-57.2881,70.03,98,99,3.67
216,Atasu,KZ,2021-04-25 23:47:50,48.6814,71.6433,44.13,69,62,4.23
217,Atuona,PF,2021-04-25 23:43:00,-9.8,-139.0333,80.13,73,56,15.37
218,Eregli,TR,2021-04-25 23:47:51,37.5133,34.0467,58.24,51,92,3.47
219,Paragominas,BR,2021-04-25 23:47:52,-2.9667,-47.4833,73.22,97,41,3.44
220,Oranjestad,AW,2021-04-25 23:46:21,12.524,-70.027,82.4,69,20,21.85
221,Bredasdorp,ZA,2021-04-25 23:47:53,-34.5322,20.0403,53.6,94,100,2.3
222,Sharjah,AE,2021-04-25 23:47:53,25.3573,55.4033,86.0,33,0,2.3
223,Hatillo,PR,2021-04-25 23:47:53,18.4863,-66.8254,80.01,83,90,5.75
224,Alta,NO,2021-04-25 23:46:45,69.9689,23.2717,30.99,86,90,4.61
225,Aklavik,CA,2021-04-25 23:38:12,68.2191,-135.0107,17.6,79,99,9.22
226,Alyangula,AU,2021-04-25 23:47:54,-13.8483,136.4192,80.6,100,75,12.01
227,Clyde River,CA,2021-04-25 23:47:54,70.4692,-68.5914,23.0,93,90,25.32
228,Hithadhoo,MV,2021-04-25 23:43:02,-0.6,73.0833,82.09,69,80,4.34
229,Campina Verde,BR,2021-04-25 23:47:55,-19.5356,-49.4864,71.85,31,77,0.69
230,Mar Del Plata,AR,2021-04-25 23:47:55,-38.0023,-57.5575,62.01,77,40,3.44
231,Khani,GE,2021-04-25 23:47:56,41.9563,42.9566,51.8,93,75,2.3
232,Kruisfontein,ZA,2021-04-25 23:43:05,-34.0033,24.7314,67.95,46,100,5.28
233,Bom Jardim,BR,2021-04-25 23:47:56,-7.7958,-35.5872,75.2,83,0,11.5
234,Ushtobe,KZ,2021-04-25 23:47:57,45.2514,77.9838,52.16,53,87,3.71
235,Liwale,TZ,2021-04-25 23:47:57,-9.7667,37.9333,67.68,99,94,2.17
236,Inongo,CD,2021-04-25 23:44:29,-1.95,18.2667,71.69,96,63,7.0
237,Kedrovyy,RU,2021-04-25 23:46:02,56.1667,91.8167,41.0,38,0,8.95
238,Batangafo,CF,2021-04-25 23:47:58,7.3008,18.2833,73.29,88,99,3.85
239,Iwaki,JP,2021-04-25 23:47:58,37.05,140.8833,52.0,39,1,1.99
240,Vagur,FO,2021-04-25 23:47:59,61.4732,-6.8119,44.58,86,100,16.71
241,Puri,IN,2021-04-25 23:47:59,19.8,85.85,80.6,94,20,6.91
242,Belyy Yar,RU,2021-04-25 23:47:59,53.6039,91.3903,30.2,80,96,4.47
243,Half Moon Bay,US,2021-04-25 23:39:17,37.4636,-122.4286,57.2,100,90,9.22
244,Sitka,US,2021-04-25 23:38:11,57.0531,-135.33,57.2,41,20,3.44
245,Ishimbay,RU,2021-04-25 23:48:00,53.4545,56.0415,35.4,79,30,8.3
246,Laguna,US,2021-04-25 23:39:51,38.421,-121.4238,60.8,55,90,14.97
247,Inhambane,MZ,2021-04-25 23:48:01,-23.865,35.3833,69.64,90,3,4.21
248,Narsaq,GL,2021-04-25 23:48:01,60.9167,-46.05,50.0,32,90,37.98
249,Seoul,KR,2021-04-25 23:39:11,37.5683,126.9778,60.8,25,40,8.05
250,Puerto Leguizamo,CO,2021-04-25 23:46:22,-0.1934,-74.7819,74.39,94,87,1.05
251,Chuy,UY,2021-04-25 23:47:57,-33.6971,-53.4616,63.1,71,95,11.63
252,Vila Do Maio,CV,2021-04-25 23:48:02,15.1333,-23.2167,71.6,73,75,17.27
253,Rantepao,ID,2021-04-25 23:48:03,-2.9701,119.8978,72.32,87,62,0.76
254,Salalah,OM,2021-04-25 23:48:03,17.0151,54.0924,82.4,74,40,8.05
255,Ayan,RU,2021-04-25 23:44:38,56.45,138.1667,30.65,73,49,3.04
256,Reyes,BO,2021-04-25 23:48:04,-14.3167,-67.3833,69.8,100,75,3.69
257,Margate,GB,2021-04-25 23:36:49,51.3813,1.3862,43.0,70,19,4.0
258,Zhanaozen,KZ,2021-04-25 23:48:04,43.3,52.8,62.04,41,10,5.64
259,Muzhi,RU,2021-04-25 23:48:05,65.3667,64.6667,33.84,96,99,9.04
260,Puerto Escondido,MX,2021-04-25 23:43:40,15.85,-97.0667,86.0,66,40,6.91
261,Souillac,MU,2021-04-25 23:48:06,-20.5167,57.5167,77.0,88,75,14.97
262,Mollendo,PE,2021-04-25 23:48:06,-17.0231,-72.0147,67.03,83,45,5.86
263,College,US,2021-04-25 23:46:10,64.8569,-147.8028,62.6,26,1,0.85
264,San Luis,AR,2021-04-25 23:48:06,-33.295,-66.3356,57.9,62,17,8.75
265,Hashtrud,IR,2021-04-25 23:48:07,37.4779,47.0508,56.5,22,22,3.06
266,Saldanha,ZA,2021-04-25 23:43:52,-33.0117,17.9442,60.8,94,81,6.91
267,Roebourne,AU,2021-04-25 23:48:07,-20.7833,117.1333,78.84,40,0,9.98
268,Stykkisholmur,IS,2021-04-25 23:48:08,65.0757,-22.7297,38.84,93,62,8.5
269,Provideniya,RU,2021-04-25 23:43:56,64.3833,-173.3,39.2,65,0,4.47
270,Rio Grande,BR,2021-04-25 23:46:49,-32.035,-52.0986,64.0,70,15,8.99
271,Juneau,US,2021-04-25 23:45:09,58.3019,-134.4197,60.8,27,20,10.36
272,Zhangye,CN,2021-04-25 23:48:09,38.9342,100.4517,41.63,23,84,8.01
273,Guerrero Negro,MX,2021-04-25 23:39:40,27.9769,-114.0611,63.7,66,99,16.82
274,Ponta Delgada,PT,2021-04-25 23:39:10,37.7333,-25.6667,59.0,82,75,10.36
275,Ilulissat,GL,2021-04-25 23:45:20,69.2167,-51.1,50.0,43,20,21.85
276,Batesville,US,2021-04-25 23:43:14,35.7698,-91.641,71.6,43,1,8.05
277,Kaeo,NZ,2021-04-25 23:48:10,-35.1,173.7833,66.99,69,73,5.99
278,Shubarkuduk,KZ,2021-04-25 23:48:10,49.1447,56.4872,47.55,87,100,8.5
279,Anamur,TR,2021-04-25 23:48:10,36.0751,32.8369,60.8,72,0,4.61
280,Andreapol,RU,2021-04-25 23:48:11,56.6513,32.2664,28.31,98,34,6.58
281,Mindelo,CV,2021-04-25 23:48:11,16.8901,-24.9804,71.6,64,20,21.85
282,Karratha,AU,2021-04-25 23:48:12,-20.7377,116.8463,78.89,42,0,9.1
283,Aloleng,PH,2021-04-25 23:48:12,16.1307,119.7824,81.3,66,7,4.07
284,Naze,JP,2021-04-25 23:38:22,28.3667,129.4833,75.2,60,75,11.5
285,Chokwe,MZ,2021-04-25 23:48:13,-24.5333,32.9833,66.25,93,0,3.38
286,Brae,GB,2021-04-25 23:38:56,60.3964,-1.353,41.0,93,100,4.61
287,Buala,SB,2021-04-25 23:44:11,-8.145,159.5921,85.73,69,23,0.2
288,Berbera,SO,2021-04-25 23:40:16,10.4396,45.0143,82.9,79,100,8.86
289,Hoa Binh,VN,2021-04-25 23:48:14,20.8133,105.3383,77.0,94,75,9.22
290,Merauke,ID,2021-04-25 23:40:13,-8.4667,140.3333,79.45,80,100,6.64
291,Silver City,US,2021-04-25 23:48:14,32.7701,-108.2803,78.8,6,1,14.97
292,Tadine,NC,2021-04-25 23:39:23,-21.55,167.8833,75.9,76,90,9.93
293,Lahij,YE,2021-04-25 23:39:36,13.1667,44.5833,76.51,72,56,4.09
294,Dinguiraye,GN,2021-04-25 23:48:15,11.3,-10.7167,82.9,44,71,0.89
295,Kaitong,CN,2021-04-25 23:48:16,44.8135,123.15,58.55,20,100,13.89
296,Bata,GQ,2021-04-25 23:48:16,1.8639,9.7658,79.39,83,64,5.93
297,Nemuro,JP,2021-04-25 23:40:03,43.3236,145.575,33.94,57,15,19.08
298,Riviere-Au-Renard,CA,2021-04-25 23:48:17,48.9957,-64.3971,41.0,81,90,6.91
299,Lorengau,PG,2021-04-25 23:39:01,-2.0226,147.2712,84.43,67,64,4.12
300,Plettenberg Bay,ZA,2021-04-25 23:48:17,-34.0527,23.3716,64.81,70,100,5.1
301,Lampitak,PH,2021-04-25 23:48:17,6.4322,125.0525,74.61,77,63,1.7
302,Ribeira Grande,PT,2021-04-25 23:48:18,38.5167,-28.7,57.2,82,20,6.91
303,Gurlan,UZ,2021-04-25 23:48:18,41.8447,60.3919,62.6,31,0,9.22
304,Airai,TL,2021-04-25 23:48:19,-8.9266,125.4092,65.52,56,25,2.42
305,Lyndon,US,2021-04-25 23:48:19,38.2567,-85.6016,66.2,42,1,5.57
306,Corning,US,2021-04-25 23:48:19,42.1428,-77.0547,53.6,47,20,13.8
307,Pevek,RU,2021-04-25 23:44:01,69.7008,170.3133,22.55,89,100,8.81
308,Meulaboh,ID,2021-04-25 23:38:33,4.1363,96.1285,76.84,84,88,2.15
309,Sohag,EG,2021-04-25 23:48:20,26.557,31.6948,82.4,21,0,13.8
310,Nelson,NZ,2021-04-25 23:48:21,-41.2833,173.2833,57.99,68,33,3.0
311,Xining,CN,2021-04-25 23:48:21,36.6167,101.7667,39.52,79,13,4.41
312,Ngaoundere,CM,2021-04-25 23:48:21,7.3167,13.5833,66.22,68,50,0.92
313,Zemio,CF,2021-04-25 23:48:22,5.0314,25.1361,68.38,98,99,1.57
314,Hasaki,JP,2021-04-25 23:48:22,35.7333,140.8333,53.01,37,20,18.41
315,Eureka,US,2021-04-25 23:43:53,40.8021,-124.1637,55.0,74,86,8.01
316,Cherskiy,RU,2021-04-25 23:48:23,68.75,161.3,17.47,83,96,6.04
317,Gijon,ES,2021-04-25 23:45:38,43.5357,-5.6615,57.99,90,100,4.83
318,San Jose,US,2021-04-25 23:41:15,37.3394,-121.895,57.99,67,75,9.22
319,Artsyz,UA,2021-04-25 23:48:23,45.9919,29.4182,43.92,68,80,9.8
320,Bathsheba,BB,2021-04-25 23:47:49,13.2167,-59.5167,78.8,61,20,14.97
321,Ust-Tarka,RU,2021-04-25 23:48:24,55.5672,75.705,41.67,55,97,11.92
322,Hamilton,US,2021-04-25 23:48:24,39.1834,-84.5333,62.6,29,1,6.91
323,Leshukonskoye,RU,2021-04-25 23:48:25,64.8989,45.7622,39.52,94,100,5.08
324,La Ronge,CA,2021-04-25 23:39:57,55.1001,-105.2842,37.4,41,100,13.8
325,Nisia Floresta,BR,2021-04-25 23:44:48,-6.0911,-35.2086,80.6,78,20,8.05
326,Maridi,SS,2021-04-25 23:48:25,4.9158,29.4742,67.01,95,100,4.54
327,Uyuni,BO,2021-04-25 23:48:00,-20.4597,-66.825,43.66,16,0,12.48
328,Viedma,AR,2021-04-25 23:41:51,-40.8135,-62.9967,55.8,72,9,9.55
329,Sabang,ID,2021-04-25 23:47:56,5.8933,95.3214,83.1,71,98,10.8
330,Kyren,RU,2021-04-25 23:48:26,51.6828,102.1408,33.1,83,84,1.52
331,Vila Franca Do Campo,PT,2021-04-25 23:43:15,37.7167,-25.4333,59.0,77,40,10.36
332,Madimba,TZ,2021-04-25 23:48:27,-10.4,40.3333,73.4,94,90,6.91
333,Ixtapa,MX,2021-04-25 23:45:56,20.7,-105.2,82.4,69,75,12.66
334,Yarkovo,RU,2021-04-25 23:48:27,57.4028,67.0786,43.11,85,85,3.89
335,Ahipara,NZ,2021-04-25 23:44:05,-35.1667,173.1667,62.62,76,59,8.7
336,Bubaque,GW,2021-04-25 23:38:48,11.2833,-15.8333,77.97,69,27,21.41
337,Kapra,IN,2021-04-25 23:48:28,17.4846,78.561,80.01,65,40,3.44
338,Hami,CN,2021-04-25 23:48:28,42.8,93.45,41.34,17,82,6.62
339,Eidfjord,NO,2021-04-25 23:48:29,60.4675,7.0719,8.01,82,46,6.2
340,Talcahuano,CL,2021-04-25 23:48:29,-36.7167,-73.1167,59.0,88,0,12.66
341,Kadom,RU,2021-04-25 23:48:30,54.5592,42.4675,33.85,76,4,12.21
342,Klaksvik,FO,2021-04-25 23:45:48,62.2266,-6.589,44.6,100,100,9.22
343,Cabedelo,BR,2021-04-25 23:48:30,-6.9811,-34.8339,77.0,94,0,5.75
344,Ferrol,ES,2021-04-25 23:48:31,43.4832,-8.2369,57.0,92,99,3.47
345,Susa,TN,2021-04-25 23:48:31,35.8254,10.637,64.0,82,0,13.8
346,Port Blair,IN,2021-04-25 23:46:34,11.6667,92.75,81.12,75,94,3.38
347,Kondagaon,IN,2021-04-25 23:48:32,19.6,81.6667,74.46,31,10,0.36
348,Port-Gentil,GA,2021-04-25 23:44:06,-0.7193,8.7815,81.93,80,1,10.2
349,Gohpur,IN,2021-04-25 23:48:32,26.8833,93.6333,74.26,41,1,4.09
350,Chalatenango,SV,2021-04-25 23:48:33,14.0333,-88.9333,87.8,65,20,12.66
351,Tokur,RU,2021-04-25 23:48:33,53.1333,132.9,36.0,62,90,4.52
352,Young,UY,2021-04-25 23:48:33,-32.6833,-57.6333,59.0,73,50,1.99
353,Akdepe,TM,2021-04-25 23:48:34,42.0551,59.3788,64.4,27,0,16.11
354,Luanda,AO,2021-04-25 23:45:03,-8.8368,13.2343,80.6,94,40,3.44
355,Pisco,PE,2021-04-25 23:35:00,-13.7,-76.2167,64.99,88,0,6.91
356,Brigantine,US,2021-04-25 23:48:35,39.4101,-74.3646,62.6,51,20,12.66
357,Tres Arroyos,AR,2021-04-25 23:48:35,-38.3739,-60.2798,57.45,74,100,5.35
358,Herat,AF,2021-04-25 23:48:35,34.5,62.0,63.34,23,7,11.59
359,Cervo,ES,2021-04-25 23:48:36,43.6702,-7.4101,55.0,88,100,1.01
360,Urucara,BR,2021-04-25 23:40:18,-2.5364,-57.76,76.32,94,100,1.01
361,Dandong,CN,2021-04-25 23:48:36,40.1292,124.3947,60.39,31,98,4.76
362,Quatre Cocos,MU,2021-04-25 23:48:36,-20.2078,57.7625,77.0,88,75,14.97
363,Satipo,PE,2021-04-25 23:48:37,-11.2522,-74.6386,73.13,89,78,1.95
364,Baisha,CN,2021-04-25 23:48:37,26.5222,110.9311,58.87,97,100,2.08
365,Nanakuli,US,2021-04-25 23:47:33,21.3906,-158.1547,84.2,51,75,14.97
366,Msanga,TZ,2021-04-25 23:48:38,-6.05,36.0333,68.0,94,75,5.75
367,Whitehorse,CA,2021-04-25 23:48:39,60.7161,-135.0538,57.2,19,1,14.97
368,Miraflores,MX,2021-04-25 23:48:39,19.2167,-98.8083,80.6,33,90,19.57
369,Ugoofaaru,MV,2021-04-25 23:48:23,5.6667,73.0,82.67,72,8,3.6
370,Brunswick,US,2021-04-25 23:48:40,41.2381,-81.8418,46.99,67,85,1.99
371,Nurota,UZ,2021-04-25 23:48:40,40.5614,65.6886,55.4,50,11,2.3
372,Liverpool,GB,2021-04-25 23:47:04,53.4106,-2.9779,48.2,71,6,8.05
373,Folkestone,GB,2021-04-25 23:48:41,51.0833,1.1833,42.01,80,15,8.01
374,Ouegoa,NC,2021-04-25 23:48:41,-20.35,164.4333,79.29,69,66,6.26
375,Shakiso,ET,2021-04-25 23:48:42,5.75,38.9167,59.81,96,95,0.63
376,Pontianak,ID,2021-04-25 23:48:42,-0.0333,109.3333,77.0,94,20,3.2
377,Tuatapere,NZ,2021-04-25 23:48:43,-46.1333,167.6833,48.0,90,94,11.01
378,Maceio,BR,2021-04-25 23:46:09,-9.6658,-35.7353,75.2,88,0,3.44
379,Kailua,US,2021-04-25 23:48:43,21.4022,-157.7394,82.4,69,75,14.97
380,Manyana,BW,2021-04-25 23:48:44,-23.4,21.7167,62.78,30,35,3.74
381,Nova Venecia,BR,2021-04-25 23:48:45,-18.7106,-40.4006,72.64,92,19,2.66
382,Verkhniye Tatyshly,RU,2021-04-25 23:48:45,56.2912,55.8575,35.74,78,72,13.44
383,Shelbyville,US,2021-04-25 23:48:46,35.4834,-86.4603,66.2,45,1,6.91
384,Bermeo,ES,2021-04-25 23:48:46,43.4209,-2.7215,59.0,82,0,4.61
385,Villa Carlos Paz,AR,2021-04-25 23:44:23,-31.4241,-64.4978,63.0,76,0,4.61
386,Gillette,US,2021-04-25 23:47:20,44.2911,-105.5022,60.8,41,1,11.5
387,Mestia,GE,2021-04-25 23:48:47,43.0458,42.7278,50.02,99,100,3.85
388,Xapuri,BR,2021-04-25 23:48:47,-10.6517,-68.5044,74.28,97,86,4.97
389,Weiser,US,2021-04-25 23:48:48,44.251,-116.9693,60.8,31,75,4.61
390,Sur,OM,2021-04-25 23:45:14,22.5667,59.5289,83.23,45,10,7.87
391,Praya,CV,2021-04-25 23:44:44,14.9215,-23.5087,71.6,73,75,17.27
392,Sidi Ali,DZ,2021-04-25 23:48:49,36.0998,0.4206,59.04,85,98,19.69
393,Tabou,CI,2021-04-25 23:47:47,4.423,-7.3528,77.04,88,100,3.83
394,Plouzane,FR,2021-04-25 23:48:49,48.3833,-4.6167,46.4,87,0,20.71
395,Korla,CN,2021-04-25 23:42:27,41.7597,86.1469,47.5,25,29,4.21
396,Conakry,GN,2021-04-25 23:48:50,9.538,-13.6773,80.6,83,20,5.73
397,Goderich,CA,2021-04-25 23:47:34,43.7501,-81.7165,35.6,69,27,19.57
398,Lamu,KE,2021-04-25 23:48:51,-2.2717,40.902,80.64,79,90,10.51
399,Temuco,CL,2021-04-25 23:48:51,-38.7333,-72.6,57.2,88,0,4.61
400,Toba,JP,2021-04-25 23:48:52,34.4833,136.85,54.0,49,0,10.0
401,Nabire,ID,2021-04-25 23:48:52,-3.3667,135.4833,77.58,85,100,2.39
402,La Sarre,CA,2021-04-25 23:48:52,48.8002,-79.1996,23.49,79,100,13.38
403,Porto Novo,BJ,2021-04-25 23:45:07,6.4965,2.6036,84.2,74,20,11.5
404,Chernyshevskiy,RU,2021-04-25 23:48:53,63.0128,112.4714,19.27,85,100,12.48
405,Kemijarvi,FI,2021-04-25 23:48:54,66.7131,27.4306,26.17,87,99,10.78
406,Champaign,US,2021-04-25 23:48:54,40.1334,-88.2001,59.0,41,1,8.05
407,Tautira,PF,2021-04-25 23:39:50,-17.7333,-149.15,86.0,66,20,6.91
408,Port-Cartier,CA,2021-04-25 23:48:54,50.0334,-66.8654,41.0,65,75,8.05
409,Nuuk,GL,2021-04-25 23:45:57,64.1835,-51.7216,41.0,75,75,5.75
410,Stephenville,US,2021-04-25 23:48:55,32.2207,-98.2023,84.2,32,1,12.66
411,Moree,AU,2021-04-25 23:48:56,-29.4667,149.85,62.6,63,0,10.36
412,Sterling,US,2021-04-25 23:48:56,39.0062,-77.4286,62.01,55,1,3.44
413,Sinnamary,GF,2021-04-25 23:47:09,5.3833,-52.95,77.77,89,74,11.39
414,Kourou,GF,2021-04-25 23:48:57,5.1552,-52.6478,81.0,83,40,1.14
415,Ewa Beach,US,2021-04-25 23:48:57,21.3156,-158.0072,84.2,51,75,14.97
416,Kahului,US,2021-04-25 23:48:57,20.8947,-156.47,82.4,54,40,23.02
417,Myatlevo,RU,2021-04-25 23:48:58,54.8969,35.6762,32.0,74,13,6.71
418,Vrangel,RU,2021-04-25 23:48:58,42.7297,133.0839,43.38,55,4,2.71
419,Chimbote,PE,2021-04-25 23:39:49,-9.0853,-78.5783,66.79,85,19,7.09
420,Gat,IL,2021-04-25 23:39:50,31.61,34.7642,73.99,49,0,1.14
421,Marathon,US,2021-04-25 23:48:59,44.9,-89.7668,48.2,31,90,5.75
422,Saint-Jean-Port-Joli,CA,2021-04-25 23:48:59,47.2171,-70.2658,46.0,93,100,8.05
423,Galle,LK,2021-04-25 23:45:18,6.0367,80.217,79.43,81,14,2.06
424,Nouadhibou,MR,2021-04-25 23:47:16,20.931,-17.0347,64.4,94,0,12.66
425,Chake Chake,TZ,2021-04-25 23:49:00,-5.2459,39.7666,77.27,87,52,4.99
426,Toamasina,MG,2021-04-25 23:49:01,-18.1667,49.3833,72.99,91,99,8.52
427,Kavieng,PG,2021-04-25 23:49:01,-2.5744,150.7967,82.87,71,99,2.95
428,Buraydah,SA,2021-04-25 23:39:03,26.326,43.975,80.6,39,40,12.66
429,Ayagoz,KZ,2021-04-25 23:40:23,47.9714,80.4392,35.42,52,69,3.24
430,Kayiry,UA,2021-04-25 23:49:02,46.9454,33.7059,45.46,68,100,7.2
431,Petropavlovsk-Kamchatskiy,RU,2021-04-25 23:49:02,53.0452,158.6483,35.6,100,90,8.95
432,Tual,ID,2021-04-25 23:39:35,-5.6667,132.75,83.37,67,99,7.83
433,Usinsk,RU,2021-04-25 23:49:03,65.9939,57.5281,37.65,89,100,7.2
434,Tomatlan,MX,2021-04-25 23:46:31,19.9333,-105.25,84.6,48,72,8.63
435,Samarai,PG,2021-04-25 23:40:07,-10.6167,150.6667,84.6,71,79,12.28
436,Odweyne,SO,2021-04-25 23:49:04,9.4092,45.064,71.4,72,99,7.74
437,Jilin,CN,2021-04-25 23:49:04,43.0,126.0,54.39,26,100,5.59
438,Shibukawa,JP,2021-04-25 23:49:05,36.4833,139.0,53.01,24,2,10.0
439,Cianjur,ID,2021-04-25 23:49:05,-6.8224,107.1393,78.8,89,20,0.92
440,Nyrob,RU,2021-04-25 23:49:06,60.733,56.7202,35.87,93,100,7.54
441,Muhos,FI,2021-04-25 23:49:06,64.808,25.9931,35.6,80,90,13.8
442,Road Town,VG,2021-04-25 23:46:38,18.4167,-64.6167,80.6,69,40,10.36
443,Rio Gallegos,AR,2021-04-25 23:39:14,-51.6226,-69.2181,60.8,39,0,17.27
444,Olinda,BR,2021-04-25 23:47:12,-8.0089,-34.8553,78.8,78,40,10.36
445,Dingle,PH,2021-04-25 23:40:07,10.9995,122.6711,82.51,70,46,3.83
446,Murchison,NZ,2021-04-25 23:49:07,-41.8,172.3333,51.98,71,43,3.42
447,Ust-Kuyga,RU,2021-04-25 23:47:46,70.0167,135.6,30.22,94,98,6.62
448,Baracoa,CU,2021-04-25 23:49:08,20.3467,-74.4958,78.03,83,67,5.23
449,Baruun-Urt,MN,2021-04-25 23:48:11,46.6806,113.2792,51.82,36,35,25.88
450,Suhbaatar,MN,2021-04-25 23:49:09,50.2314,106.2078,37.09,60,100,19.46
451,Yenagoa,NG,2021-04-25 23:49:09,4.9247,6.2642,77.77,86,55,2.28
452,Colares,PT,2021-04-25 23:49:09,38.7992,-9.4469,62.01,87,49,10.36
453,Zhoucheng,CN,2021-04-25 23:49:10,35.9122,116.3117,53.91,91,100,2.98
454,Ayotzintepec,MX,2021-04-25 23:49:10,17.6667,-96.1333,87.62,55,48,5.21
455,Fort Abbas,PK,2021-04-25 23:49:11,29.1925,72.8536,83.5,13,0,8.03
456,Florence,IT,2021-04-25 23:48:01,43.7667,11.25,59.0,54,0,3.44
457,Oistins,BB,2021-04-25 23:49:12,13.0667,-59.5333,78.8,61,20,14.97
458,Neiafu,TO,2021-04-25 23:47:33,-18.65,-173.9833,84.2,70,20,6.91
459,San Vicente,AR,2021-04-25 23:46:49,-26.6167,-54.1333,54.84,95,40,2.68
460,Svetlogorsk,BY,2021-04-25 23:49:12,52.6333,29.7333,31.44,80,47,5.23
461,Monrovia,LR,2021-04-25 23:49:13,6.3005,-10.7969,78.8,94,20,8.52
462,Jinxiang,CN,2021-04-25 23:49:14,27.4327,120.6062,64.27,81,58,6.06
463,Hede,CN,2021-04-25 23:49:14,33.7681,120.2517,58.39,74,57,5.61
464,Rio Bueno,CL,2021-04-25 23:49:14,-40.3167,-72.9667,48.2,93,75,0.87
465,Hofn,IS,2021-04-25 23:49:15,64.2539,-15.2082,43.92,76,99,16.98
466,Westport,US,2021-04-25 23:49:15,41.1415,-73.3579,60.8,55,1,6.91
467,Dharur,IN,2021-04-25 23:49:16,18.8167,76.1167,83.89,24,69,5.82
468,Vila Velha,BR,2021-04-25 23:49:16,-20.3297,-40.2925,78.8,83,20,6.91
469,Abu Dhabi,AE,2021-04-25 23:46:08,24.4667,54.3667,84.2,51,64,1.14
470,Gazanjyk,TM,2021-04-25 23:46:58,39.2446,55.5154,71.74,40,2,2.86
471,Hirara,JP,2021-04-25 23:48:04,24.8,125.2833,73.4,64,20,13.8
472,Batticaloa,LK,2021-04-25 23:49:17,7.7102,81.6924,77.77,80,62,5.21
473,Chumikan,RU,2021-04-25 23:48:26,54.7183,135.315,37.26,73,100,7.9
474,Ishigaki,JP,2021-04-25 23:47:28,24.3448,124.1572,73.4,68,20,13.8
475,Purpe,RU,2021-04-25 23:49:18,64.4803,76.6897,26.01,91,100,12.93
476,Talaya,RU,2021-04-25 23:47:37,61.3833,152.75,9.43,71,94,1.57
477,Mandalgovi,MN,2021-04-25 23:46:02,45.7625,106.2708,29.37,92,61,19.8
478,Grand Gaube,MU,2021-04-25 23:49:19,-20.0064,57.6608,75.0,84,100,8.01
479,Concepcion Del Uruguay,AR,2021-04-25 23:49:19,-32.4825,-58.2372,59.0,73,1,1.99
480,Yaan,NG,2021-04-25 23:49:20,7.3833,8.5667,77.41,74,84,4.68
481,Prijepolje,RS,2021-04-25 23:49:20,43.3719,19.6406,39.2,56,0,1.14
482,Makaryev,RU,2021-04-25 23:49:20,57.8797,43.8069,32.61,97,100,14.85
483,Northam,GB,2021-04-25 23:48:18,51.0333,-4.2167,46.99,78,8,13.0
484,Lanxi,CN,2021-04-25 23:49:21,29.2195,119.477,62.31,91,100,3.36
485,Pudozh,RU,2021-04-25 23:49:21,61.8099,36.5345,40.41,93,99,3.87
486,Cabra,ES,2021-04-25 23:49:22,37.4725,-4.4421,57.99,83,82,1.88
487,Sao Jose Da Coroa Grande,BR,2021-04-25 23:47:11,-8.8978,-35.1478,78.44,84,19,7.43
488,Brownwood,US,2021-04-25 23:49:22,31.7093,-98.9912,86.0,25,1,11.5
489,Sotnikovo,RU,2021-04-25 23:49:23,51.8845,107.4791,39.2,52,75,11.18
490,Gien,FR,2021-04-25 23:49:23,47.6933,2.6309,51.01,47,100,1.99
491,Humaita,BR,2021-04-25 23:49:23,-7.5061,-63.0208,76.77,91,79,1.39
492,Khandyga,RU,2021-04-25 23:49:24,62.6667,135.6,27.25,81,100,5.3
493,Walvis Bay,NA,2021-04-25 23:49:24,-22.9575,14.5053,61.0,92,12,8.93
494,Mahibadhoo,MV,2021-04-25 23:49:25,3.7833,72.9667,82.8,73,8,5.64
495,Mantua,IT,2021-04-25 23:49:25,45.1667,10.7833,57.99,68,100,5.01
496,Nago,JP,2021-04-25 23:49:25,26.5881,127.9761,69.8,88,1,5.75
497,Rasova,RO,2021-04-25 23:49:26,44.25,27.9333,42.01,100,56,8.05
498,Willmar,US,2021-04-25 23:49:26,45.1219,-95.0433,42.8,65,75,16.11
499,Vuktyl,RU,2021-04-25 23:47:04,63.8567,57.3094,40.55,78,100,9.26
500,Oskemen,KZ,2021-04-25 23:49:27,49.9565,82.6119,30.2,64,40,4.47
501,Ramhormoz,IR,2021-04-25 23:49:27,31.28,49.6035,79.95,29,52,5.08
502,Hammerfest,NO,2021-04-25 23:45:59,70.6634,23.6821,32.0,93,75,8.05
503,Minggang,CN,2021-04-25 23:49:28,32.4586,114.0486,54.1,85,100,1.97
504,Senigallia,IT,2021-04-25 23:49:28,43.7093,13.2167,51.01,76,75,2.3
505,Baculin,PH,2021-04-25 23:49:29,7.4525,126.5842,82.31,74,100,3.22
506,Gotha,DE,2021-04-25 23:49:29,50.9482,10.7019,37.4,56,0,4.61
507,Kununurra,AU,2021-04-25 23:49:29,-15.7667,128.7333,80.6,39,99,10.36
508,Meadow Lake,US,2021-04-25 23:47:41,34.8014,-106.5436,84.99,6,75,17.27
509,Mwinilunga,ZM,2021-04-25 23:49:30,-11.7358,24.4293,60.85,89,87,3.58
510,Gamba,GA,2021-04-25 23:40:10,-2.65,10.0,77.74,88,71,2.68
511,Tymovskoye,RU,2021-04-25 23:49:30,50.8456,142.655,34.88,49,36,3.6
512,Agadir,MA,2021-04-25 23:49:01,30.4202,-9.5982,62.6,88,40,4.61
513,Ketchikan,US,2021-04-25 23:48:22,55.3422,-131.6461,60.8,27,1,11.5
514,Yar-Sale,RU,2021-04-25 23:46:37,66.8333,70.8333,32.81,97,100,12.5
515,Havoysund,NO,2021-04-25 23:46:52,70.9963,24.6622,32.0,93,75,8.05
516,Sao Joao Da Barra,BR,2021-04-25 23:38:10,-21.6403,-41.0511,74.61,89,42,6.44
517,Sutysky,UA,2021-04-25 23:49:31,49.0425,28.4173,39.0,90,100,1.01
518,Zeya,RU,2021-04-25 23:49:32,53.75,127.2667,46.98,45,100,5.88
519,Gravdal,NO,2021-04-25 23:49:33,68.1214,13.5031,36.66,62,95,6.85
520,Charters Towers,AU,2021-04-25 23:49:33,-20.1,146.2667,71.1,76,100,10.98
521,Bayji,IQ,2021-04-25 23:47:35,34.9311,43.487,83.84,16,88,10.22
522,Bestobe,KZ,2021-04-25 23:47:52,52.4994,73.0975,44.37,78,13,9.93
523,Lagoa,PT,2021-04-25 23:44:36,39.05,-27.9833,59.14,84,99,11.48
524,Ozinki,RU,2021-04-25 23:49:34,51.1786,49.6769,39.7,57,60,5.66
525,San Quintin,MX,2021-04-25 23:49:34,30.4833,-115.95,62.2,65,67,13.87
526,San Cristobal,VE,2021-04-25 23:43:54,7.7669,-72.225,86.0,62,40,8.05
527,Pokhara,NP,2021-04-25 23:49:35,28.2333,83.9833,68.52,19,0,7.72
528,Gorey,IE,2021-04-25 23:49:35,52.6747,-6.2925,37.99,90,57,7.58
529,Chardara,KZ,2021-04-25 23:49:35,41.2547,67.9692,58.78,41,1,9.42
530,Sudak,UA,2021-04-25 23:49:36,44.85,34.9667,46.44,55,100,7.74
531,Arona,ES,2021-04-25 23:49:36,28.0996,-16.681,66.99,72,40,4.61
532,Urambo,TZ,2021-04-25 23:49:37,-5.0667,32.05,64.58,96,91,3.18
533,Jumla,NP,2021-04-25 23:49:37,29.2747,82.1838,43.68,46,0,4.65
534,The Pas,CA,2021-04-25 23:44:41,53.8251,-101.2541,46.4,34,75,11.5
535,Vinkovci,HR,2021-04-25 23:49:37,45.2883,18.8047,53.6,40,0,11.5
536,Mazamari,PE,2021-04-25 23:49:38,-11.3258,-74.5308,73.27,89,84,1.1
537,Sungaipenuh,ID,2021-04-25 23:49:38,-2.0833,101.3833,65.52,94,79,2.73
538,Surt,LY,2021-04-25 23:49:39,31.2089,16.5887,61.32,84,0,8.1
539,Ilhabela,BR,2021-04-25 23:46:35,-23.7781,-45.3581,71.13,82,72,3.2
540,Santiago Del Estero,AR,2021-04-25 23:49:40,-27.7951,-64.2615,64.4,57,0,6.26
541,Lata,PT,2021-04-25 23:49:40,40.1629,-8.3327,59.0,92,97,3.44
542,Port Augusta,AU,2021-04-25 23:49:41,-32.5,137.7667,59.0,82,1,4.61
543,Rockport,US,2021-04-25 23:49:41,28.0206,-97.0544,78.8,78,1,17.27
544,Challapata,BO,2021-04-25 23:49:42,-18.9,-66.7667,45.0,16,0,3.51
545,Sola,VU,2021-04-25 23:46:15,-13.8833,167.55,86.0,70,40,7.54
546,Murray Bridge,AU,2021-04-25 23:49:42,-35.1167,139.2667,55.99,98,0,2.86
547,Rio Branco,BR,2021-04-25 23:49:43,-9.9747,-67.81,75.2,100,75,2.3
548,Leningradskiy,RU,2021-04-25 23:49:43,69.3833,178.4167,27.52,83,100,1.1
549,Baykit,RU,2021-04-25 23:49:44,61.67,96.37,27.68,78,30,5.08
550,Itacurubi Del Rosario,PY,2021-04-25 23:49:44,-24.5,-56.6833,68.22,76,86,6.42
551,Beni,CD,2021-04-25 23:49:45,0.5,29.4667,62.49,99,99,0.81
552,Mount Gambier,AU,2021-04-25 23:49:45,-37.8333,140.7667,53.6,94,90,5.75
553,Carballo,ES,2021-04-25 23:49:46,43.213,-8.691,57.0,95,89,2.3
554,Lannion,FR,2021-04-25 23:49:46,48.75,-3.4167,46.4,81,75,13.8
555,Nanortalik,GL,2021-04-25 23:49:46,60.1432,-45.2371,39.25,85,100,7.7
556,Tarare,FR,2021-04-25 23:49:47,45.8976,4.4327,59.0,72,100,2.08
557,San Fernando,PH,2021-04-25 23:49:47,15.0286,120.6898,78.8,73,75,2.3
558,Ola,RU,2021-04-25 23:49:47,59.5833,151.2833,21.99,56,32,3.65
559,Simao,CN,2021-04-25 23:49:48,22.7886,100.9748,70.52,65,83,2.55
560,Thap Khlo,TH,2021-04-25 23:49:48,16.16,100.5966,84.0,76,28,4.94
561,Oranjemund,NA,2021-04-25 23:48:09,-28.55,16.4333,62.17,88,100,3.78
562,Ancud,CL,2021-04-25 23:49:49,-41.8697,-73.8203,54.0,94,75,2.3
563,Comodoro Rivadavia,AR,2021-04-25 23:48:19,-45.8667,-67.5,55.4,76,0,1.14
564,Tazovskiy,RU,2021-04-25 23:46:46,67.4667,78.7,16.02,94,68,9.51
565,Linguere,SN,2021-04-25 23:40:18,15.3953,-15.1193,75.07,38,25,14.03
566,Port Lincoln,AU,2021-04-25 23:46:35,-34.7333,135.8667,63.7,68,3,7.61
567,Vanimo,PG,2021-04-25 23:40:16,-2.6741,141.3028,81.07,71,100,1.7
568,Newton,US,2021-04-25 23:47:29,42.337,-71.2092,53.6,71,90,10.36
569,San Juan,AR,2021-04-25 23:46:00,-31.5375,-68.5364,67.33,40,0,8.5
570,Taree,AU,2021-04-25 23:47:27,-31.9,152.4667,66.0,77,6,8.05
571,Lubao,PH,2021-04-25 23:49:51,14.9167,120.55,78.8,73,75,2.3
572,High Level,CA,2021-04-25 23:49:51,58.5169,-117.136,42.8,42,90,10.36
573,Areosa,PT,2021-04-25 23:49:52,41.7178,-8.8571,59.0,94,0,4.61
574,Kasongo-Lunda,CD,2021-04-25 23:46:43,-6.4667,16.8167,70.9,94,67,1.59
575,Rio Cuarto,AR,2021-04-25 23:48:13,-33.1307,-64.3499,55.4,67,0,6.89
576,Aksarka,RU,2021-04-25 23:49:40,66.5606,67.7975,32.88,92,97,10.51
577,Virginia Beach,US,2021-04-25 23:49:53,36.8529,-75.978,62.01,66,77,1.01
578,Mokolo,CM,2021-04-25 23:49:53,10.7398,13.8019,83.66,32,98,3.69
579,Puerto Carreno,CO,2021-04-25 23:49:54,6.189,-67.4859,76.21,83,100,11.68
580,Aquiraz,BR,2021-04-25 23:49:54,-3.9014,-38.3911,80.6,83,0,2.3
581,Awbari,LY,2021-04-25 23:47:51,26.5921,12.7805,74.41,25,0,10.51
582,Prescott,US,2021-04-25 23:44:59,34.54,-112.4685,71.01,13,1,16.11
583,Volokolamsk,RU,2021-04-25 23:49:55,56.0336,35.9694,30.29,87,31,10.51
584,Grindavik,IS,2021-04-25 23:49:55,63.8424,-22.4338,39.2,93,0,13.8
585,Severnoye,RU,2021-04-25 23:49:56,56.3491,78.3619,39.18,73,100,7.43
586,Cuautitlan Izcalli,MX,2021-04-25 23:49:56,19.6469,-99.2467,78.01,33,90,19.57
587,Kakinada,IN,2021-04-25 23:49:57,16.9333,82.2167,77.59,83,59,2.68
588,Maragogi,BR,2021-04-25 23:46:32,-9.0122,-35.2225,78.24,84,22,7.18
589,Kudahuvadhoo,MV,2021-04-25 23:47:29,2.6708,72.8944,82.63,69,11,6.11
590,Lavrentiya,RU,2021-04-25 23:47:19,65.5833,-171.0,31.73,89,85,1.25
591,Bahia Honda,CU,2021-04-25 23:49:58,22.9036,-83.1592,78.48,77,84,3.69
592,Falkenberg,SE,2021-04-25 23:49:58,56.9055,12.4912,39.99,69,54,6.91
593,Srednekolymsk,RU,2021-04-25 23:49:58,67.45,153.6833,22.08,73,15,8.52
594,Lompoc,US,2021-04-25 23:49:59,34.6391,-120.4579,57.2,82,100,5.75
595,Olafsvik,IS,2021-04-25 23:49:59,64.8945,-23.7142,39.47,89,11,14.97
596,Kyaikkami,MM,2021-04-25 23:50:00,16.08,97.5675,79.74,85,100,5.61
597,Solenzo,BF,2021-04-25 23:50:00,12.1833,-4.0833,92.08,23,52,3.56
598,Batemans Bay,AU,2021-04-25 23:50:01,-35.7167,150.1833,63.0,52,4,0.47
599,Strezhevoy,RU,2021-04-25 23:47:16,60.7333,77.5889,32.0,86,0,6.71
600,Talara,PE,2021-04-25 23:50:02,-4.5772,-81.2719,69.46,83,35,12.75
601,Zavetnoye,RU,2021-04-25 23:50:04,47.1194,43.8903,44.24,79,100,10.4
602,Sao Felix Do Xingu,BR,2021-04-25 23:47:11,-6.6447,-51.995,72.86,97,19,1.07
603,Tilichiki,RU,2021-04-25 23:50:05,60.4667,166.1,31.03,95,99,5.7
604,Poum,NC,2021-04-25 23:50:05,-20.2333,164.0167,77.34,73,67,21.52
605,Bulaevo,KZ,2021-04-25 23:50:05,54.9056,70.4439,42.37,82,68,7.11
606,Pierre,US,2021-04-25 23:50:06,44.3683,-100.351,68.0,40,1,8.05
607,Zyryanka,RU,2021-04-25 23:50:06,65.75,150.85,20.44,77,9,14.52
608,Neftcala,AZ,2021-04-25 23:50:07,39.3742,49.2472,56.46,79,19,3.69
609,Warrnambool,AU,2021-04-25 23:50:07,-38.3833,142.4833,55.99,96,90,8.37
610,Ambon,ID,2021-04-25 23:46:04,-3.6954,128.1814,84.2,74,40,1.14
611,Port Hedland,AU,2021-04-25 23:45:40,-20.3167,118.5667,69.8,43,0,6.91
612,Coihaique,CL,2021-04-25 23:50:08,-45.5752,-72.0662,53.6,62,75,3.44
613,Kalmar,SE,2021-04-25 23:50:08,56.6616,16.3616,36.0,80,20,3.44
614,Mount Isa,AU,2021-04-25 23:44:22,-20.7333,139.5,78.8,47,6,17.27
615,Balikpapan,ID,2021-04-25 23:47:30,-1.2675,116.8289,77.32,88,79,3.83
616,Kidal,ML,2021-04-25 23:50:09,18.4411,1.4078,86.94,7,1,3.67
617,Puerto Del Rosario,ES,2021-04-25 23:50:09,28.5004,-13.8627,68.0,68,0,2.3
618,Sorland,NO,2021-04-25 23:47:14,67.667,12.6934,37.6,60,88,8.75
619,Kuli,RU,2021-04-25 23:50:10,42.0185,47.2434,60.8,77,75,6.91
620,Coahuayana,MX,2021-04-25 23:50:10,18.7333,-103.6833,82.4,51,75,11.5
621,Nayagarh,IN,2021-04-25 23:50:11,20.1333,85.1,76.03,65,4,2.82
622,Krasnaya Gora,RU,2021-04-25 23:50:11,52.9995,31.6023,32.0,80,0,6.71
623,Dawei,MM,2021-04-25 23:50:12,14.0833,98.2,77.49,87,100,2.04
624,Kloulklubed,PW,2021-04-25 23:50:12,7.0419,134.2556,82.4,78,75,10.36
625,Praia,CV,2021-04-25 23:50:13,14.9215,-23.5087,71.6,73,75,17.27
626,Wisconsin Rapids,US,2021-04-25 23:50:13,44.3836,-89.8174,48.2,31,90,5.75
627,Weyburn,CA,2021-04-25 23:50:13,49.6668,-103.8511,39.2,75,100,11.5
628,Diffa,NE,2021-04-25 23:50:14,13.3154,12.6113,85.71,18,77,4.18
629,Mugur-Aksy,RU,2021-04-25 23:46:56,50.35,90.5,14.9,72,6,4.7
630,Rio Brilhante,BR,2021-04-25 23:50:14,-21.8019,-54.5464,68.36,89,95,6.15
631,Fujieda,JP,2021-04-25 23:50:15,34.8667,138.2667,57.2,33,20,3.44
632,Gongzhuling,CN,2021-04-25 23:50:15,43.5008,124.8198,57.74,22,100,7.83
633,Aykhal,RU,2021-04-25 23:50:16,66.0,111.5,5.2,93,100,27.87
634,Illela,NG,2021-04-25 23:50:16,13.7292,5.2975,91.98,22,89,8.72
635,Tlacotepec,MX,2021-04-25 23:50:16,20.0667,-97.8667,69.73,80,92,3.13
636,Zhireken,RU,2021-04-25 23:50:17,52.8249,117.3076,45.09,33,100,7.47
637,Prudyanka,UA,2021-04-25 23:50:17,50.2361,36.1683,42.8,70,0,4.47
638,Ibotirama,BR,2021-04-25 23:50:17,-12.1853,-43.2206,75.2,79,100,0.31
639,Lipari,IT,2021-04-25 23:50:18,38.4674,14.954,55.0,53,5,4.0
640,Kaspiysk,RU,2021-04-25 23:50:19,42.8816,47.6392,51.8,82,100,6.71
641,Falavarjan,IR,2021-04-25 23:50:19,32.5553,51.5097,59.0,38,0,2.3
642,Kuytun,RU,2021-04-25 23:48:50,54.3419,101.5036,33.13,76,77,12.1
643,Magadan,RU,2021-04-25 23:50:20,59.5667,150.8,22.35,56,17,1.05
644,Cooma,AU,2021-04-25 23:50:20,-36.2333,149.1333,42.8,100,1,3.44
645,Nioro,GM,2021-04-25 23:50:20,13.35,-15.75,79.41,34,14,10.0
646,Rafai,CF,2021-04-25 23:50:21,4.95,23.9167,69.03,99,100,1.36
647,Copiapo,CL,2021-04-25 23:50:21,-27.3667,-70.3333,59.0,82,90,9.22
648,Asaba,NG,2021-04-25 23:50:21,6.2006,6.7338,78.31,87,84,6.33
649,Nsanje,MW,2021-04-25 23:50:22,-16.92,35.262,69.6,96,4,1.97
650,Sokolo,ML,2021-04-25 23:50:22,14.7328,-6.1219,92.97,16,48,13.82
651,Mezen,RU,2021-04-25 23:50:23,65.8522,44.24,40.57,92,100,3.15
652,Hammonton,US,2021-04-25 23:50:23,39.6365,-74.8024,60.01,80,69,5.57
653,Chiredzi,ZW,2021-04-25 23:50:24,-21.05,31.6667,63.12,39,0,0.56
654,Scarborough,GB,2021-04-25 23:48:28,54.2797,-0.4044,37.0,80,7,3.47
655,Omboue,GA,2021-04-25 23:50:24,-1.5746,9.2618,78.91,87,13,4.72
656,Shirokiy,RU,2021-04-25 23:50:25,49.758,129.523,47.44,39,100,7.45
657,Mnogovershinnyy,RU,2021-04-25 23:45:47,53.9353,139.9242,29.57,72,8,4.61
658,Atambua,ID,2021-04-25 23:50:25,-9.1061,124.8925,76.08,62,10,4.27
659,Santa Maria,BR,2021-04-25 23:50:26,-29.6842,-53.8069,60.8,77,75,3.44
660,Ukiah,US,2021-04-25 23:50:26,39.1502,-123.2078,59.0,44,40,6.91
661,Peterhead,GB,2021-04-25 23:50:27,57.5058,-1.7981,41.0,70,86,6.91
662,Somerset East,ZA,2021-04-25 23:50:27,-32.7217,25.588,71.08,27,100,7.18
663,Ossora,RU,2021-04-25 23:50:28,59.2353,163.0719,32.83,97,100,1.83
664,Jieshi,CN,2021-04-25 23:50:28,22.8134,115.8257,71.24,73,98,18.21
665,Vardo,NO,2021-04-25 23:50:29,70.3705,31.1107,31.86,68,41,6.55
666,Ko Samui,TH,2021-04-25 23:50:29,9.5357,99.9357,82.71,75,87,8.86
667,Privolzhye,RU,2021-04-25 23:50:30,52.8649,48.6044,38.64,67,2,10.13
668,Koslan,RU,2021-04-25 23:50:30,63.4564,48.8989,38.68,94,100,6.6
669,Esterhazy,CA,2021-04-25 23:50:31,50.65,-102.0843,41.0,60,100,9.22
670,Pangoa,PE,2021-04-25 23:50:31,-12.1167,-73.0,72.01,92,75,1.97
671,Charleston,US,2021-04-25 23:50:25,32.7766,-79.9309,73.4,56,40,8.05
672,Ende,ID,2021-04-25 23:50:32,-8.8432,121.6623,80.35,75,90,4.94
673,Karaton,ID,2021-04-25 23:47:17,-6.3424,106.1045,81.0,78,5,5.75
674,Paita,PE,2021-04-25 23:50:32,-5.0892,-81.1144,71.01,78,38,16.6
675,Kushima,JP,2021-04-25 23:50:33,31.4583,131.2333,62.6,36,75,17.27
676,Dharchula,IN,2021-04-25 23:50:33,29.85,80.5333,59.56,28,0,9.53
677,Genhe,CN,2021-04-25 23:46:23,50.7833,121.5167,52.68,28,95,4.85
678,Caravelas,BR,2021-04-25 23:50:34,-17.7125,-39.2481,76.05,82,6,7.29
679,Hengshan,CN,2021-04-25 23:50:34,45.2,130.9167,48.81,28,86,4.25
680,Balkhash,KZ,2021-04-25 23:50:34,46.844,74.9804,45.23,40,45,9.44
681,Manay,PH,2021-04-25 23:50:35,7.215,126.5397,82.04,74,100,2.75
682,Businga,CD,2021-04-25 23:50:35,3.3333,20.8833,70.14,94,96,3.18
683,Ballina,AU,2021-04-25 23:50:36,-28.8667,153.5667,64.99,88,90,6.91
684,Bilibino,RU,2021-04-25 23:42:40,68.0546,166.4372,21.76,80,99,3.2
685,Barillas,GT,2021-04-25 23:50:37,15.8036,-91.3158,77.0,41,0,20.71
686,Yulara,AU,2021-04-25 23:50:37,-25.2406,130.9889,60.8,44,0,11.5
687,Buncrana,IE,2021-04-25 23:50:37,55.1333,-7.45,43.34,87,17,5.1
688,Mgandu,TZ,2021-04-25 23:50:38,-5.95,34.1333,59.09,98,35,5.08
689,Pokaran,IN,2021-04-25 23:50:38,26.9167,71.9167,81.14,11,0,4.94
690,Andros Town,BS,2021-04-25 23:50:39,24.7,-77.7667,78.8,78,20,8.05
691,Amahai,ID,2021-04-25 23:50:39,-3.3333,128.9167,87.01,86,54,1.01
692,Quchan,IR,2021-04-25 23:50:40,37.106,58.5095,59.31,40,23,6.44
693,Tuy Hoa,VN,2021-04-25 23:50:40,13.0833,109.3,81.23,78,49,0.58
694,Jalu,LY,2021-04-25 23:50:41,29.0331,21.5482,63.73,53,0,11.61
695,Pangnirtung,CA,2021-04-25 23:50:41,66.1451,-65.7125,32.14,87,99,3.44
696,Tocopilla,CL,2021-04-25 23:50:42,-22.092,-70.1979,65.44,72,11,3.42
697,Colesberg,ZA,2021-04-25 23:50:42,-30.72,25.0972,59.94,31,100,0.92
698,Port Macquarie,AU,2021-04-25 23:46:06,-31.4333,152.9167,70.0,71,6,1.01
699,Jiaojiang,CN,2021-04-25 23:48:24,28.6803,121.4428,66.99,98,27,3.6
700,Nizhniy Odes,RU,2021-04-25 23:50:43,63.6445,54.856,39.18,88,95,9.6
701,Kupang,ID,2021-04-25 23:50:43,-10.1667,123.5833,78.04,66,86,6.22
702,Saint-Pierre,RE,2021-04-25 23:50:43,-21.3393,55.4781,77.0,73,0,17.27
703,Marawi,PH,2021-04-25 23:46:28,7.9986,124.2928,79.0,85,100,1.99
704,Gazojak,TM,2021-04-25 23:50:44,41.1875,61.4036,65.89,21,1,13.58
705,Palmer,US,2021-04-25 23:50:44,42.1584,-72.3287,55.4,62,90,3.44
706,Tromso,NO,2021-04-25 23:50:45,69.6496,18.957,32.0,93,75,5.75
707,Manzil Salim,TN,2021-04-25 23:50:45,35.8567,8.4765,60.8,44,0,9.22
708,Wuxue,CN,2021-04-25 23:50:46,29.8506,115.5525,61.05,90,100,0.85
709,Krasnoselkup,RU,2021-04-25 23:47:20,65.7,82.4667,18.68,89,22,5.82
710,Barabai,ID,2021-04-25 23:49:19,-2.5833,115.3833,81.86,73,49,1.34
711,Iquitos,PE,2021-04-25 23:41:57,-3.7481,-73.2472,84.2,74,40,5.75
712,Teguise,ES,2021-04-25 23:48:06,29.0605,-13.564,68.0,73,20,9.22
713,Raga,SS,2021-04-25 23:50:47,8.4596,25.678,72.34,78,100,6.15
714,Constantine,DZ,2021-04-25 23:48:06,36.365,6.6147,62.6,59,0,6.91
715,Vryheid,ZA,2021-04-25 23:50:47,-27.7695,30.7917,50.76,85,0,3.47
716,Stege,DK,2021-04-25 23:50:48,54.987,12.2846,42.01,69,1,2.3
717,Springdale,US,2021-04-25 23:50:48,36.1867,-94.1288,73.4,38,1,14.97
718,Santa Isabel Do Rio Negro,BR,2021-04-25 23:50:48,-0.4139,-65.0192,76.15,96,97,2.98
719,Bambanglipuro,ID,2021-04-25 23:50:49,-7.95,110.2833,77.85,80,66,3.49
